[
    {
        "nom": "HAUTE-SAVOIE",
        "coordinates": [48.8167, 1.95],
        "view": 9
    },
    {
        "nom": "SAVOIE",
        "coordinates": [48.9, 2.2],
        "view": 11
    },
    {
        "nom": "RHONE",
        "coordinates": [48.6, 2.4833],
        "view": 9
    },
    {
        "nom": "ISERE",
        "coordinates": [48.8167, 3.0833],
        "view": 9
    },
    {
        "nom": "PUY-DE-DOME",
        "coordinates": [49.0333, 2.0667],
        "view": 9
    },
    {
        "nom": "AIN",
        "coordinates": [48.7833, 2.4667],
        "view": 11
    },
    {
        "nom": "SDROME",
        "coordinates": [48.8667, 2.4833],
        "view": 11
    },
]