[
    {
        "nom": "ARDENNES",
        "coordinates": [48.3656, 4.3827],
        "view": 8
    },
    {
        "nom": "AUBE",
        "coordinates": [48.1816, 4.0842],
        "view": 8
    },
    {
        "nom": "BAS-RHIN",
        "coordinates": [48.4015, 7.3305],
        "view": 8
    },
    {
        "nom": "HAUT-RHIN",
        "coordinates": [47.5131, 7.1627],
        "view": 8
    },
    {
        "nom": "HAUTE-MARNE",
        "coordinates": [48.0634, 5.1335],
        "view": 8
    },
    {
        "nom": "MARNE",
        "coordinates": [48.5657, 4.1418],
        "view": 8
    },
    {
        "nom": "MEURTHE-ET-MOSELLE",
        "coordinates": [48.4713, 6.0854],
        "view": 8
    },
    {
        "nom": "MEUSE",
        "coordinates": [48.5822, 5.2254],
        "view": 8
    },
    {
        "nom": "MOSELLE",
        "coordinates": [48.0214, 6.3848],
        "view": 8
    },
    {
        "nom": "VOSGES",
        "coordinates": [48.1148, 6.2250],
        "view": 8
    }
]