[
    {
        "nom": "CHARENTE",
        "coordinates": [45.4305, 0.1206],
        "view": 8
    },
    {
        "nom": "CHARENT-MARITIME",
        "coordinates": [45.4651, 0.4028],
        "view": 8
    },
    {
        "nom": "CORREZE",
        "coordinates": [45.2125, 1.5237],
        "view": 8
    },
    {
        "nom": "CREUSE",
        "coordinates": [46.0525, 2.0108],
        "view": 8
    },
    {
        "nom": "DEUX-SEVRES",
        "coordinates": [46.3320, 0.1802],
        "view": 8
    },
    {
        "nom": "DORDOGNE",
        "coordinates": [45.0615, 0.4428],
        "view": 8
    },
    {
        "nom": "GIRONDE",
        "coordinates": [44.8385716, -0.5856543],
        "view": 8
    },
    {
        "nom": "HAUTE-VIENNE",
        "coordinates": [45.5330, 1.1407],
        "view": 8
    },
    {
        "nom": "LANDES",
        "coordinates": [43.8899954, 0.4702],
        "view": 8
    },
    {
        "nom": "LOT-ET-GARONNE",
        "coordinates": [44.2203, 0.2737],
        "view": 8
    },
    {
        "nom": "PYRENEES-ATLANTIQUES",
        "coordinates": [43.1524, 0.4541],
        "view": 8
    },
    {
        "nom": "VIENNE",
        "coordinates": [46.3350, 0.2737],
        "view": 8
    }
]