[
    {
        "nom": "LOIRE-ATLANTIQUE",
        "coordinates": [47.2328907, -1.5569072],
        "view": 8
    },
    {
        "nom": "MAINE-ET-LOIRE",
        "coordinates": [47.47225865, -0.5549908125436571],
        "view": 8
    },
    {
        "nom": "MAYENNE",
        "coordinates": [48.0712154, -0.775207],
        "view": 8
    },
    {
        "nom": "SARTHE",
        "coordinates": [47.9979099, 0.1943212],
        "view": 8
    },
    {
        "nom": "VENDEE",
        "coordinates": [46.660122, -1.4008534
        ],
        "view": 8
    }
]